{
  "locations": [
    {
      "id" : "1",
      "placeId": "ChIJ-bFh0ooB0oURLCszTBtpIkc",
      "name": "Cassava Roots PRADO NORTE",
      "address": "Avenida Prado Norte 400, Lomas - Virreyes, Lomas de Chapultepec, Miguel Hidalgo, 11000 Ciudad de México, CDMX, México",
      "img": "https://m.media-amazon.com/images/I/61ICkCk85gL._CR0,27,1387,1387_UX256.jpg",
      "coordinates": {
        "lat": 19.42729, "lng": -99.210858
      },
      "schedule": [
        { "day": "monday", "hours": "10am - 9pm" },
        { "day": "tuesday", "hours": "10am - 9pm" },
        { "day": "wednesday", "hours": "10am - 9pm" },
        { "day": "thursday", "hours": "10am - 9pm" },
        { "day": "friday", "hours": "10am - 9pm" },
        { "day": "saturday", "hours": "10am - 9pm" },
        { "day": "sunday", "hours": "10am - 9pm" }
      ]
    },
    {
      "id" : "2",
      "placeId": "ChIJ9Y0XSzYB0oURLB7xPVw7PKU",
      "name": "Cassava Roots CC INTERLOMAS",
      "address": "Blvd. Interlomas 5, Local U-03 PA, La Herradura, 52786 Naucalpan de Juárez, Méx., México",
      "img": "https://m.media-amazon.com/images/I/61ICkCk85gL._CR0,27,1387,1387_UX256.jpg",
      "coordinates": {
        "lat": 19.402397, "lng": -99.269543
      },
      "schedule": [
        { "day": "monday", "hours": "10am - 8:30pm" },
        { "day": "tuesday", "hours": "10am - 8:30pm" },
        { "day": "wednesday", "hours": "10am - 8:30pm" },
        { "day": "thursday", "hours": "10am - 8:30pm" },
        { "day": "friday", "hours": "10am - 8:30pm" },
        { "day": "saturday", "hours": "10am - 8:30pm" },
        { "day": "sunday", "hours": "10am - 8:30pm" }
      ]
    },
    {
      "id" : "3",
      "name": "Cassava Roots BOSQUES",
      "placeId": "ChIJE1tE0DwB0oURTAluqf9HxT4",
      "address": "Av. Stim 1344, Lomas del Chamizal, Cuajimalpa de Morelos, 05129 Ciudad de México, CDMX, México",
      "img": "https://m.media-amazon.com/images/I/61ICkCk85gL._CR0,27,1387,1387_UX256.jpg",
      "coordinates": {
        "lat": 19.389298, "lng": -99.261009
      },
      "schedule": [
        { "day": "monday", "hours": "10am - 8pm" },
        { "day": "tuesday", "hours": "10am - 8pm" },
        { "day": "wednesday", "hours": "10am - 8pm" },
        { "day": "thursday", "hours": "10am - 8pm" },
        { "day": "friday", "hours": "10am - 8pm" },
        { "day": "saturday", "hours": "10am - 8pm" },
        { "day": "sunday", "hours": "10am - 8pm" }
      ]
    },
    {
      "id" : "4",
      "name": "Cassava Roots POLANQUITO",
      "placeId": "ChIJawxpDwIC0oUR2E2pcI4ewig",
      "address": "Calle Julio Verne 102, Polanco, Polanco IV Secc, Miguel Hidalgo, 11550 Ciudad de México, CDMX, México",
      "img": "https://m.media-amazon.com/images/I/61ICkCk85gL._CR0,27,1387,1387_UX256.jpg",
      "coordinates": {
        "lat": 19.43089, "lng": -99.196387
      },
      "schedule": [
        { "day": "monday", "hours": "10am - 9pm" },
        { "day": "tuesday", "hours": "10am - 9pm" },
        { "day": "wednesday", "hours": "10am - 9pm" },
        { "day": "thursday", "hours": "10am - 9pm" },
        { "day": "friday", "hours": "10am - 9pm" },
        { "day": "saturday", "hours": "10am - 9pm" },
        { "day": "sunday", "hours": "10am - 9pm" }
      ]
    },
    {
      "id" : "5",
      "name": "Cassava Roots ENCUENTRO OCEANÍA",
      "placeId": "ChIJtQMBp_P70YURF4BHlnTP05Q",
      "address": "Av. del Peñón 355, Moctezuma 2da Secc, Venustiano Carranza, 15530 Ciudad de México, CDMX, México",
      "img": "https://m.media-amazon.com/images/I/61ICkCk85gL._CR0,27,1387,1387_UX256.jpg",
      "coordinates": {
        "lat": 19.439513, "lng": -99.094372
      },
      "schedule": [
        { "day": "monday", "hours": "10am - 9pm" },
        { "day": "tuesday", "hours": "10am - 9pm" },
        { "day": "wednesday", "hours": "10am - 9pm" },
        { "day": "thursday", "hours": "10am - 9pm" },
        { "day": "friday", "hours": "10am - 9pm" },
        { "day": "saturday", "hours": "10am - 9pm" },
        { "day": "sunday", "hours": "10am - 9pm" }
      ]
    },
    {
      "id" : "6",
      "name": "Cassava Roots PARQUE TOREO",
      "placeId": "ChIJbVBt1jsC0oURmaoSTrvlXGE",
      "address": "Perif. Blvd. Manuel Ávila Camacho 5, Lomas de Sotelo, Fraccionamiento, 11200 Ciudad de México, Méx., México",
      "img": "https://m.media-amazon.com/images/I/61ICkCk85gL._CR0,27,1387,1387_UX256.jpg",
      "coordinates": {
        "lat": 19.454406, "lng": -99.218899
      },
      "schedule": [
        { "day": "monday", "hours": "11am - 9pm" },
        { "day": "tuesday", "hours": "11am - 9pm" },
        { "day": "wednesday", "hours": "11am - 9pm" },
        { "day": "thursday", "hours": "11am - 9pm" },
        { "day": "friday", "hours": "11am - 9pm" },
        { "day": "saturday", "hours": "11am - 9pm" },
        { "day": "sunday", "hours": "11am - 9pm" }
      ]
    },
    {
      "id" : "7",
      "name": "Cassava Roots PARQUE LINDAVISTA",
      "placeId": "ChIJs-vZz6X50YURVATEDdz-QhM",
      "address": "Colector 13 280, Magdalena de las Salinas, Gustavo A. Madero, 07760 Ciudad de México, CDMX, México",
      "img": "https://m.media-amazon.com/images/I/61ICkCk85gL._CR0,27,1387,1387_UX256.jpg",
      "coordinates": {
        "lat": 19.486281, "lng": -99.131724
      },
      "schedule": [
        { "day": "monday", "hours": "10am - 9pm" },
        { "day": "tuesday", "hours": "10am - 9pm" },
        { "day": "wednesday", "hours": "10am - 9pm" },
        { "day": "thursday", "hours": "10am - 9pm" },
        { "day": "friday", "hours": "10am - 9pm" },
        { "day": "saturday", "hours": "10am - 9pm" },
        { "day": "sunday", "hours": "10am - 9pm" }
      ]
    },
    {
      "id" : "8",
      "name": "Cassava Roots ENCUENTRO FORTUNA",
      "placeId": "ChIJFdNMOp750YURWawhoozUvsg",
      "address": "Av Fortuna 334, Magdalena de las Salinas, Gustavo A. Madero, 07760 Ciudad de México, CDMX, México",
      "img": "https://m.media-amazon.com/images/I/61ICkCk85gL._CR0,27,1387,1387_UX256.jpg",
      "coordinates": {
        "lat": 19.484038, "lng": -99.133095
      },
      "schedule": [
        { "day": "monday", "hours": "11am - 9pm" },
        { "day": "tuesday", "hours": "11am - 9pm" },
        { "day": "wednesday", "hours": "11am - 9pm" },
        { "day": "thursday", "hours": "11am - 9pm" },
        { "day": "friday", "hours": "11am - 9pm" },
        { "day": "saturday", "hours": "11am - 9pm" },
        { "day": "sunday", "hours": "11am - 9pm" }
      ]
    },
    {
      "id" : "9",
      "name": "Cassava Roots PLAZA SATÉLITE",
      "placeId": "ChIJUy1gVoUD0oUROzR4FJhPNX4",
      "address": "Cto Centro Comercial 2251 Local A37, Primer Nivel, Cd. Satélite, 53100 Naucalpan de Juárez, Méx., México",
      "img": "https://m.media-amazon.com/images/I/61ICkCk85gL._CR0,27,1387,1387_UX256.jpg",
      "coordinates": {
        "lat": 19.510382, "lng": -99.233992
      },
      "schedule": [
        { "day": "monday", "hours": "10am - 9pm" },
        { "day": "tuesday", "hours": "10am - 9pm" },
        { "day": "wednesday", "hours": "10am - 9pm" },
        { "day": "thursday", "hours": "10am - 9pm" },
        { "day": "friday", "hours": "10am - 10pm" },
        { "day": "saturday", "hours": "10am - 10pm" },
        { "day": "sunday", "hours": "10am - 9pm" }
      ]
    },
    {
      "id" : "10",
      "name": "Cassava Roots PARQUE TEZONTLE",
      "placeId": "ChIJAQAAxMv90YURdbgD4aGlITc",
      "address": "Canal de Tezontle 1512, Área Federal Central de Abastos, Iztapalapa, 09020 Ciudad de México, CDMX, México",
      "img": "https://m.media-amazon.com/images/I/61ICkCk85gL._CR0,27,1387,1387_UX256.jpg",
      "coordinates": {
        "lat": 19.384802, "lng": -99.082414
      },
      "schedule": [
        { "day": "monday", "hours": "11am - 9pm" },
        { "day": "tuesday", "hours": "11am - 9pm" },
        { "day": "wednesday", "hours": "11am - 9pm" },
        { "day": "thursday", "hours": "11am - 9pm" },
        { "day": "friday", "hours": "11am - 9pm" },
        { "day": "saturday", "hours": "11am - 9pm" },
        { "day": "sunday", "hours": "11am - 9pm" }
      ]
    },
    {
      "id" : "11",
      "name": "Cassava Roots PARQUE LAS ANTENAS",
      "placeId": "ChIJ20CftNQDzoUR51XvHigI9PE",
      "address": "Av. Canal de Garay 3278, La Esperanza, Iztapalapa, 09910 Ciudad de México, CDMX, México",
      "img": "https://m.media-amazon.com/images/I/61ICkCk85gL._CR0,27,1387,1387_UX256.jpg",
      "coordinates": {
        "lat": 19.31438, "lng": -99.077025
      },
      "schedule": [
        { "day": "monday", "hours": "11am - 9pm" },
        { "day": "tuesday", "hours": "11am - 9pm" },
        { "day": "wednesday", "hours": "11am - 9pm" },
        { "day": "thursday", "hours": "11am - 9pm" },
        { "day": "friday", "hours": "11am - 9pm" },
        { "day": "saturday", "hours": "11am - 9pm" },
        { "day": "sunday", "hours": "11am - 9pm" }
      ]
    },
    {
      "id" : "12",
      "name": "Cassava Roots WALMART ORIENTE",
      "placeId": "ChIJnewtIMr90YURwt2RVHShPTs",
      "address": "Canal de Tezontle 1520, Dr Alfonso Ortiz Tirado, Iztapalapa, 09020 Ciudad de México, CDMX, México",
      "img": "https://m.media-amazon.com/images/I/61ICkCk85gL._CR0,27,1387,1387_UX256.jpg",
      "coordinates": {
        "lat": 19.38447, "lng": -99.079572
      },
      "schedule": [
        { "day": "monday", "hours": "11am - 9pm" },
        { "day": "tuesday", "hours": "11am - 9pm" },
        { "day": "wednesday", "hours": "11am - 9pm" },
        { "day": "thursday", "hours": "11am - 9pm" },
        { "day": "friday", "hours": "11am - 9pm" },
        { "day": "saturday", "hours": "11am - 9pm" },
        { "day": "sunday", "hours": "11am - 9pm" }
      ]
    },
    {
      "id" : "13",
      "placeId": "ChIJme6EaPX_zYURdvwqMytYWUU",
      "name": "Cassava Roots ENCUENTRO SUR PEDREGAL",
      "address": "Av. de Las Fuentes 571, Jardines del Pedregal, Álvaro Obregón, 01900 Ciudad de México, CDMX, México",
      "img": "https://m.media-amazon.com/images/I/61ICkCk85gL._CR0,27,1387,1387_UX256.jpg",
      "coordinates": {
        "lat": 19.316038, "lng": -99.212601
      },
      "schedule": [
        { "day": "monday", "hours": "10am - 8:30pm" },
        { "day": "tuesday", "hours": "10am - 8:30pm" },
        { "day": "wednesday", "hours": "10am - 8:30pm" },
        { "day": "thursday", "hours": "10am - 8:30pm" },
        { "day": "friday", "hours": "10am - 8:30pm" },
        { "day": "saturday", "hours": "10am - 8:30pm" },
        { "day": "sunday", "hours": "10am - 8:30pm" }
      ]
    },
    {
      "id" : "14",
      "name": "Cassava Roots LAS ÁGUILAS",
      "placeId": "ChIJj_iCMyIA0oURxQbDd8vQ-hk",
      "address": "Calz de los Leones 217, Águilas, Álvaro Obregón, 01710 Ciudad de México, CDMX, México",
      "img": "https://m.media-amazon.com/images/I/61ICkCk85gL._CR0,27,1387,1387_UX256.jpg",
      "coordinates": {
        "lat": 19.358966, "lng": -99.198161
      },
      "schedule": [
        { "day": "monday", "hours": "10am - 9pm" },
        { "day": "tuesday", "hours": "10am - 9pm" },
        { "day": "wednesday", "hours": "10am - 9pm" },
        { "day": "thursday", "hours": "10am - 9pm" },
        { "day": "friday", "hours": "10am - 10pm" },
        { "day": "saturday", "hours": "10am - 10pm" },
        { "day": "sunday", "hours": "10am - 9pm" }
      ]
    },
    {
      "id" : "15",
      "name": "Cassava Roots WALMART PLATEROS",
      "placeId": "ChIJ7cpSQSYA0oURXkRBYICi74U",
      "address": "Boulevard Adolfo López Mateos, Merced Gómez 1701, Lomas de Plateros, Álvaro Obregón, 01460 Ciudad de México, CDMX, México",
      "img": "https://m.media-amazon.com/images/I/61ICkCk85gL._CR0,27,1387,1387_UX256.jpg",
      "coordinates": {
        "lat": 19.369169, "lng": -99.193053
      },
      "schedule": [
        { "day": "monday", "hours": "11am - 9pm" },
        { "day": "tuesday", "hours": "11am - 9pm" },
        { "day": "wednesday", "hours": "11am - 9pm" },
        { "day": "thursday", "hours": "11am - 9pm" },
        { "day": "friday", "hours": "11am - 9pm" },
        { "day": "saturday", "hours": "11am - 9pm" },
        { "day": "sunday", "hours": "11am - 9pm" }
      ]
    },
    {
      "id" : "16",
      "name": "Cassava Roots PLAZA UNIVERSIDAD",
      "placeId": "ChIJebZqLLz_0YUROKoGP6tp1gM",
      "address": "Parroquia 1031, Sta Cruz Atoyac, Benito Juárez, 03313 Ciudad de México, CDMX, México",
      "img": "https://m.media-amazon.com/images/I/61ICkCk85gL._CR0,27,1387,1387_UX256.jpg",
      "coordinates": {
        "lat": 19.367476, "lng": -99.165151
      },
      "schedule": [
        { "day": "monday", "hours": "11am - 9pm" },
        { "day": "tuesday", "hours": "11am - 9pm" },
        { "day": "wednesday", "hours": "11am - 9pm" },
        { "day": "thursday", "hours": "11am - 9pm" },
        { "day": "friday", "hours": "11am - 9pm" },
        { "day": "saturday", "hours": "11am - 9pm" },
        { "day": "sunday", "hours": "11am - 9pm" }
      ]
    },
    {
      "id" : "17",
      "name": "Cassava Roots TORRE MANACAR",
      "placeId": "ChIJgbqMyvj_0YUREwxaM6YYHnA",
      "address": "Ya, Av. de los Insurgentes Sur 1475, Insurgentes Mixcoac, Benito Juárez, 03920 Ciudad de México, CDMX, México",
      "img": "https://m.media-amazon.com/images/I/61ICkCk85gL._CR0,27,1387,1387_UX256.jpg",
      "coordinates": {
        "lat": 19.368903, "lng": -99.181197
      },
      "schedule": [
        { "day": "monday", "hours": "11am - 9pm" },
        { "day": "tuesday", "hours": "11am - 9pm" },
        { "day": "wednesday", "hours": "11am - 9pm" },
        { "day": "thursday", "hours": "11am - 9pm" },
        { "day": "friday", "hours": "11am - 9pm" },
        { "day": "saturday", "hours": "11am - 9pm" },
        { "day": "sunday", "hours": "11am - 9pm" }
      ]
    },
    {
      "id" : "18",
      "name": "Cassava Roots LIVERPOOL PERISUR",
      "placeId": "ChIJY7jFbd__zYURXCLUz9reu3Y",
      "address": "Liverpool Dulcería, Anillo Perif. 4690-Piso 1, Insurgentes Cuicuilco, Coyoacán, 04500 Ciudad de México, CDMX, México",
      "img": "https://m.media-amazon.com/images/I/61ICkCk85gL._CR0,27,1387,1387_UX256.jpg",
      "coordinates": {
        "lat": 19.304426, "lng": -99.190078
      },
      "schedule": [
        { "day": "monday", "hours": "11am - 9pm" },
        { "day": "tuesday", "hours": "11am - 9pm" },
        { "day": "wednesday", "hours": "11am - 9pm" },
        { "day": "thursday", "hours": "11am - 9pm" },
        { "day": "friday", "hours": "11am - 9pm" },
        { "day": "saturday", "hours": "11am - 9pm" },
        { "day": "sunday", "hours": "11am - 9pm" }
      ]
    },
    {
      "id" : "19",
      "name": "Cassava Roots CONDESA AMSTERDAM",
      "placeId": "ChIJQdfIUT__0YUR8BASJvPPJxc",
      "address": "Amsterdam 288, Hipódromo, Cuauhtémoc, 06140 Ciudad de México, CDMX, México",
      "img": "https://m.media-amazon.com/images/I/61ICkCk85gL._CR0,27,1387,1387_UX256.jpg",
      "coordinates": {
        "lat": 19.4136, "lng": -99.167187
      },
      "schedule": [
        { "day": "monday", "hours": "10am - 9pm" },
        { "day": "tuesday", "hours": "10am - 9pm" },
        { "day": "wednesday", "hours": "10am - 9pm" },
        { "day": "thursday", "hours": "10am - 9pm" },
        { "day": "friday", "hours": "10am - 9pm" },
        { "day": "saturday", "hours": "10am - 9pm" },
        { "day": "sunday", "hours": "10am - 9pm" }
      ]
    },
    {
      "id" : "20",
      "name": "Cassava Roots CONDESA TLAXCALA",
      "placeId": "ChIJ0y_KYWr_0YURF5b5TXBDN2o",
      "address": "Cda. Tlaxcala 193-Local A, Colonia Condesa, Cuauhtémoc, 06100 Ciudad de México, CDMX, México",
      "img": "https://m.media-amazon.com/images/I/61ICkCk85gL._CR0,27,1387,1387_UX256.jpg",
      "coordinates": {
        "lat": 19.406693, "lng": -99.170603
      },
      "schedule": [
        { "day": "monday", "hours": "10am - 9pm" },
        { "day": "tuesday", "hours": "10am - 9pm" },
        { "day": "wednesday", "hours": "10am - 9pm" },
        { "day": "thursday", "hours": "10am - 9pm" },
        { "day": "friday", "hours": "10am - 9pm" },
        { "day": "saturday", "hours": "10am - 9pm" },
        { "day": "sunday", "hours": "10am - 9pm" }
      ]
    },
    {
      "id" : "21",
      "name": "Cassava Roots PARQUE DELTA",
      "placeId": "ChIJByTpGFb_0YURHr0d1UuX3JY",
      "address": "Av. Cuauhtémoc 462, Piedad Narvarte, Benito Juárez, 03020 Ciudad de México, CDMX, México",
      "img": "https://m.media-amazon.com/images/I/61ICkCk85gL._CR0,27,1387,1387_UX256.jpg",
      "coordinates": {
        "lat": 19.402693, "lng": -99.154961
      },
      "schedule": [
        { "day": "monday", "hours": "10am - 9pm" },
        { "day": "tuesday", "hours": "10am - 9pm" },
        { "day": "wednesday", "hours": "10am - 9pm" },
        { "day": "thursday", "hours": "10am - 9pm" },
        { "day": "friday", "hours": "10am - 9pm" },
        { "day": "saturday", "hours": "10am - 9pm" },
        { "day": "sunday", "hours": "10am - 9pm" }
      ]
    },
    {
      "id" : "22",
      "name": "Cassava Roots AVERANDA CUERNAVACA",
      "placeId": "ChIJfxhOxM_fzYURT7VXSP4zwM8",
      "address": "Mexico-Acapulco Km 73 Plaza Averanda Tulipanes, Villas del Lago, 62370 Cuernavaca, Mor., México",
      "img": "https://m.media-amazon.com/images/I/61ICkCk85gL._CR0,27,1387,1387_UX256.jpg",
      "coordinates": {
        "lat": 18.934349, "lng": -99.196789
      },
      "schedule": [
        { "day": "monday", "hours": "11am - 9pm" },
        { "day": "tuesday", "hours": "11am - 9pm" },
        { "day": "wednesday", "hours": "11am - 9pm" },
        { "day": "thursday", "hours": "11am - 9pm" },
        { "day": "friday", "hours": "11am - 9pm" },
        { "day": "saturday", "hours": "11am - 9pm" },
        { "day": "sunday", "hours": "11am - 9pm" }
      ]
    },
    {
      "id" : "23",
      "name": "Cassava Roots PASEO QUERÉTARO",
      "placeId": "ChIJSwo2b3Fb04URKKDZCx20DqY",
      "address": "Anillo Vial Fray Junípero Serra 7901, La Purísima, 76146 Santiago de Querétaro, Qro., México",
      "img": "https://m.media-amazon.com/images/I/61ICkCk85gL._CR0,27,1387,1387_UX256.jpg",
      "coordinates": {
        "lat": 20.631197, "lng": -100.355732
      },
      "schedule": [
        { "day": "monday", "hours": "11am - 9pm" },
        { "day": "tuesday", "hours": "11am - 9pm" },
        { "day": "wednesday", "hours": "11am - 9pm" },
        { "day": "thursday", "hours": "11am - 9pm" },
        { "day": "friday", "hours": "11am - 9pm" },
        { "day": "saturday", "hours": "11am - 9pm" },
        { "day": "sunday", "hours": "11am - 9pm" }
      ]
    },
    {
      "id" : "24",
      "name": "Cassava Roots ISLA MÉRIDA",
      "placeId": "ChIJWSGAxb93Vo8Rsj3cXDNohuA",
      "address": "Calle 24 s/n, Plaza la Isla, Local PB-43, Cabo Norte, Yucatàn, 97305 Mérida, Yuc., México",
      "img": "https://m.media-amazon.com/images/I/61ICkCk85gL._CR0,27,1387,1387_UX256.jpg",
      "coordinates": {
        "lat": 21.057953, "lng": -89.596134
      },
      "schedule": [
        { "day": "monday", "hours": "11am - 9pm" },
        { "day": "tuesday", "hours": "11am - 9pm" },
        { "day": "wednesday", "hours": "11am - 9pm" },
        { "day": "thursday", "hours": "11am - 9pm" },
        { "day": "friday", "hours": "11am - 9pm" },
        { "day": "saturday", "hours": "11am - 9pm" },
        { "day": "sunday", "hours": "11am - 9pm" }
      ]
    },
    {
      "id" : "25",
      "name": "Cassava Roots EXPLANADA PACHUCA",
      "placeId": "ChIJQ6CHTdOh0YURuopY0kdKBSI",
      "address": "Autopista México - Pachuca 620, San Antonio el Desmonte, 42111 Pachuca de Soto, Hgo., México",
      "img": "https://m.media-amazon.com/images/I/61ICkCk85gL._CR0,27,1387,1387_UX256.jpg",
      "coordinates": {
        "lat": 20.037905, "lng": -98.795444
      },
      "schedule": [
        { "day": "monday", "hours": "11am - 9pm" },
        { "day": "tuesday", "hours": "11am - 9pm" },
        { "day": "wednesday", "hours": "11am - 9pm" },
        { "day": "thursday", "hours": "11am - 9pm" },
        { "day": "friday", "hours": "11am - 9pm" },
        { "day": "saturday", "hours": "11am - 9pm" },
        { "day": "sunday", "hours": "11am - 9pm" }
      ]
    },
    {
      "id" : "26",
      "name": "Cassava Roots EXPLANADA PUEBLA",
      "placeId": "ChIJDyCeRWfBz4URWxlh5SZocE8",
      "address": "Calle Ignacio Allende 512, Santiago Momoxpan, Alvaro Obregón, 72760 San Andrés Cholula, Pue., México",
      "img": "https://m.media-amazon.com/images/I/61ICkCk85gL._CR0,27,1387,1387_UX256.jpg",
      "coordinates": {
        "lat": 19.073064, "lng": -98.276458
      },
      "schedule": [
        { "day": "monday", "hours": "11am - 8:30pm" },
        { "day": "tuesday", "hours": "11am - 8:30pm" },
        { "day": "wednesday", "hours": "11am - 8:30pm" },
        { "day": "thursday", "hours": "11am - 8:30pm" },
        { "day": "friday", "hours": "11am - 8:30pm" },
        { "day": "saturday", "hours": "11am - 8:30pm" },
        { "day": "sunday", "hours": "11am - 8:30pm" }
      ]
    },
    {
      "id" : "27",
      "name": "Cassava Roots EXPLANADA CULIACÁN",
      "placeId": "ChIJvyCc6ZrRvIYRNo2q_r9qRbo",
      "address": "Blvd. de las Torres Poniente 5270, Ejido, Las Flores, 80104 Culiacán Rosales, Sin., México",
      "img": "https://m.media-amazon.com/images/I/61ICkCk85gL._CR0,27,1387,1387_UX256.jpg",
      "coordinates": {
        "lat": 24.747855, "lng": -107.447279
      },
      "schedule": [
        { "day": "monday", "hours": "11am - 8pm" },
        { "day": "tuesday", "hours": "11am - 8pm" },
        { "day": "wednesday", "hours": "11am - 8pm" },
        { "day": "thursday", "hours": "11am - 8pm" },
        { "day": "friday", "hours": "11am - 8pm" },
        { "day": "saturday", "hours": "11am - 8pm" },
        { "day": "sunday", "hours": "11am - 8pm" }
      ]
    },
    {
      "id" : "28",
      "name": "Cassava Roots SAN JOAQUÍN",
      "placeId": "ChIJ-VvylWoC0oURdXf7ippgwgo",
      "address": "San Joaquín, 11260 Ciudad de México, CDMX, México",
      "img": "https://m.media-amazon.com/images/I/61ICkCk85gL._CR0,27,1387,1387_UX256.jpg",
      "coordinates": {
        "lat": 19.453838, "lng": -99.209982
      },
      "schedule": [
        { "day": "monday", "hours": "12pm - 8pm" },
        { "day": "tuesday", "hours": "12pm - 8pm" },
        { "day": "wednesday", "hours": "12pm - 8pm" },
        { "day": "thursday", "hours": "12pm - 8pm" },
        { "day": "friday", "hours": "12pm - 8pm" },
        { "day": "saturday", "hours": "12pm - 8pm" },
        { "day": "sunday", "hours": "12pm - 8pm" }
      ]
    },
    {
      "id" : "29",
      "name": "Cassava Roots MONTERREY",
      "placeId": "ChIJ9fg3tDGVYoYRlJjIasrT06M",
      "address": "Monterrey, N.L., México",
      "img": "https://m.media-amazon.com/images/I/61ICkCk85gL._CR0,27,1387,1387_UX256.jpg",
      "coordinates": {
        "lat": 25.686614, "lng": -100.316113
      },
      "schedule": [
        { "day": "monday", "hours": "12pm - 8pm" },
        { "day": "tuesday", "hours": "12pm - 8pm" },
        { "day": "wednesday", "hours": "12pm - 8pm" },
        { "day": "thursday", "hours": "12pm - 8pm" },
        { "day": "friday", "hours": "12pm - 8pm" },
        { "day": "saturday", "hours": "12pm - 8pm" },
        { "day": "sunday", "hours": "12pm - 8pm" }
      ]
    },
    {
      "id" : "30",
      "name": "Cassava Roots AZCAPOTZALCO",
      "placeId": "ChIJiSu1VKr50YUREZpZlRGvCZo",
      "address": "Calle Clavelinas 159, Nueva Santa María, Azcapotzalco, 02800 Ciudad de México, CDMX, México",
      "img": "https://m.media-amazon.com/images/I/61ICkCk85gL._CR0,27,1387,1387_UX256.jpg",
      "coordinates": {
        "lat": 19.465612, "lng": -99.167173
      },
      "schedule": [
        { "day": "monday", "hours": "12pm - 8pm" },
        { "day": "tuesday", "hours": "12pm - 8pm" },
        { "day": "wednesday", "hours": "12pm - 8pm" },
        { "day": "thursday", "hours": "12pm - 8pm" },
        { "day": "friday", "hours": "12pm - 8pm" },
        { "day": "saturday", "hours": "12pm - 8pm" },
        { "day": "sunday", "hours": "12pm - 8pm" }
      ]
    },
    {
      "id" : "31",
      "name": "Cassava Roots USA MCALLEN",
      "placeId": "ChIJTcwBuqSnZYYR8BkMvgo6mKQ",
      "address": "2200 S 10th St Kiosk KI36, McAllen, TX 78503, EE. UU.",
      "img": "https://m.media-amazon.com/images/I/61ICkCk85gL._CR0,27,1387,1387_UX256.jpg",
      "coordinates": {
        "lat": 26.185378, "lng": -98.236356
      },
      "schedule": [
        { "day": "monday", "hours": "11am - 9pm" },
        { "day": "tuesday", "hours": "11am - 9pm" },
        { "day": "wednesday", "hours": "11am - 9pm" },
        { "day": "thursday", "hours": "11am - 9pm" },
        { "day": "friday", "hours": "11am - 9pm" },
        { "day": "saturday", "hours": "11am - 9pm" },
        { "day": "sunday", "hours": "11am - 9pm" }
      ]
    },
    {
      "id" : "32",
      "name": "Cassava Roots PATIO SANTA FE",
      "placeId": "ChIJPasKXuAA0oURzRIWGlXZ4Y8",
      "address": "Prol. P.º de la Reforma 400, Santa Fe, Zedec Sta Fé, Álvaro Obregón, 01210 Ciudad de México, CDMX, México",
      "img": "https://m.media-amazon.com/images/I/61ICkCk85gL._CR0,27,1387,1387_UX256.jpg",
      "coordinates": {
        "lat": 19.377258, "lng": -99.254652
      },
      "schedule": [
        { "day": "monday", "hours": "11am - 8pm" },
        { "day": "tuesday", "hours": "11am - 8pm" },
        { "day": "wednesday", "hours": "11am - 8pm" },
        { "day": "thursday", "hours": "11am - 9pm" },
        { "day": "friday", "hours": "11am - 9pm" },
        { "day": "saturday", "hours": "11am - 9pm" },
        { "day": "sunday", "hours": "11am - 9pm" }
      ]
    },
    {
      "id" : "33",
      "name": "Cassava Roots C.C. SANTA FE",
      "placeId": "ChIJs8QiBMwA0oURx3vmoEQohvY",
      "address": "Centro Comercial Santa Fe Vasco de Quiroga Avenida Antigua 3800 Cuajimapla de Morelos, Santa Fe, Contadero, Cuajimalpa de Morelos, 05348 Ciudad de México, CDMX, México",
      "img": "https://m.media-amazon.com/images/I/61ICkCk85gL._CR0,27,1387,1387_UX256.jpg",
      "coordinates": {
        "lat": 19.361105, "lng": -99.273597
      },
      "schedule": [
        { "day": "monday", "hours": "11am - 8pm" },
        { "day": "tuesday", "hours": "11am - 8pm" },
        { "day": "wednesday", "hours": "11am - 8pm" },
        { "day": "thursday", "hours": "11am - 9pm" },
        { "day": "friday", "hours": "11am - 9pm" },
        { "day": "saturday", "hours": "11am - 9pm" },
        { "day": "sunday", "hours": "11am - 9pm" }
      ]
    },
    {
      "id" : "34",
      "name": "Cassava Roots PARQUES POLANCO",
      "placeId": "ChIJB7w72NP50YURh8FuTWudDps",
      "address": "Lago Alberto 320, Granada, Miguel Hidalgo, 11520 Ciudad de México, CDMX, México",
      "img": "https://m.media-amazon.com/images/I/61ICkCk85gL._CR0,27,1387,1387_UX256.jpg",
      "coordinates": {
        "lat": 19.440531, "lng": -99.184382
      },
      "schedule": [
        { "day": "monday", "hours": "10am - 8pm" },
        { "day": "tuesday", "hours": "10am - 8pm" },
        { "day": "wednesday", "hours": "10am - 8pm" },
        { "day": "thursday", "hours": "10am - 8pm" },
        { "day": "friday", "hours": "10am - 8pm" },
        { "day": "saturday", "hours": "10am - 8pm" },
        { "day": "sunday", "hours": "10am - 8pm" }
      ]
    },
    {
      "id" : "35",
      "name": "Cassava Roots COYOACÁN",
      "placeId": "ChIJjcZbLsX_0YUR1P5thGKWgvU",
      "address": "Av Miguel Hidalgo 225, Del Carmen, Coyoacán, 04100 Ciudad de México, CDMX, México",
      "img": "https://m.media-amazon.com/images/I/61ICkCk85gL._CR0,27,1387,1387_UX256.jpg",
      "coordinates": {
        "lat": 19.350151, "lng": -99.158885
      },
      "schedule": [
        { "day": "monday", "hours": "11am - 10pm" },
        { "day": "tuesday", "hours": "11am - 10pm" },
        { "day": "wednesday", "hours": "11am - 10pm" },
        { "day": "thursday", "hours": "11am - 10pm" },
        { "day": "friday", "hours": "11am - 10pm" },
        { "day": "saturday", "hours": "11am - 10pm" },
        { "day": "sunday", "hours": "11am - 10pm" }
      ]
    },
    {
      "id" : "36",
      "name": "Cassava Roots DEL VALLE",
      "placeId": "ChIJ7YibzrP_0YURJ5XgK1YbE4o",
      "address": "Manzanas 56-Local A, Tlacoquemecatl del Valle, Benito Juárez, 03200 Ciudad de México, CDMX, México",
      "img": "https://m.media-amazon.com/images/I/61ICkCk85gL._CR0,27,1387,1387_UX256.jpg",
      "coordinates": {
        "lat": 19.376215, "lng": -99.177595
      },
      "schedule": [
        { "day": "monday", "hours": "11am - 10pm" },
        { "day": "tuesday", "hours": "11am - 10pm" },
        { "day": "wednesday", "hours": "11am - 10pm" },
        { "day": "thursday", "hours": "11am - 10pm" },
        { "day": "friday", "hours": "11am - 10pm" },
        { "day": "saturday", "hours": "11am - 10pm" },
        { "day": "sunday", "hours": "11am - 10pm" }
      ]
    },
    {
      "id" : "37",
      "name": "Cassava Roots PARQUE INTERLOMAS",
      "placeId": "ChIJ0UUZz8gG0oURkwmJ1VBpyYY",
      "address": "Av. Jesús del Monte 41, Hacienda de las Palmas, 52763 Méx., México",
      "img": "https://m.media-amazon.com/images/I/61ICkCk85gL._CR0,27,1387,1387_UX256.jpg",
      "coordinates": {
        "lat": 19.396028, "lng": -99.288427
      },
      "schedule": [
        { "day": "monday", "hours": "10am - 9pm" },
        { "day": "tuesday", "hours": "10am - 9pm" },
        { "day": "wednesday", "hours": "10am - 9pm" },
        { "day": "thursday", "hours": "10am - 9pm" },
        { "day": "friday", "hours": "10am - 9pm" },
        { "day": "saturday", "hours": "10am - 9pm" },
        { "day": "sunday", "hours": "10am - 9pm" }
      ]
    },
    {
      "id" : "38",
      "name": "Cassava Roots ZONA AZUL",
      "placeId": "ChIJDbkT_hcD0oURYNLiQEUsfqc",
      "address": "Cto. Circunvalacion Pte. 23, Cd. Satélite, 53100 Naucalpan de Juárez, Méx., México",
      "img": "https://m.media-amazon.com/images/I/61ICkCk85gL._CR0,27,1387,1387_UX256.jpg",
      "coordinates": {
        "lat": 19.505264, "lng": -99.247994
      },
      "schedule": [
        { "day": "monday", "hours": "11am - 9pm" },
        { "day": "tuesday", "hours": "11am - 9pm" },
        { "day": "wednesday", "hours": "11am - 9pm" },
        { "day": "thursday", "hours": "11am - 9pm" },
        { "day": "friday", "hours": "11am - 9pm" },
        { "day": "saturday", "hours": "11am - 9pm" },
        { "day": "sunday", "hours": "11am - 9pm" }
      ]
    },
    {
      "id" : "39",
      "name": "Cassava Roots MUNDO E",
      "placeId": "ChIJkaaGfCwd0oURSAZV4PaMAlk",
      "address": "Perif. Blvd. Manuel Ávila Camacho 1007, Hab Jardines de Santa Monica, 54050 Tlalnepantla de Baz, Méx., México",
      "img": "https://m.media-amazon.com/images/I/61ICkCk85gL._CR0,27,1387,1387_UX256.jpg",
      "coordinates": {
        "lat": 19.525775, "lng": -99.228083
      },
      "schedule": [
        { "day": "monday", "hours": "11am - 9pm" },
        { "day": "tuesday", "hours": "11am - 9pm" },
        { "day": "wednesday", "hours": "11am - 9pm" },
        { "day": "thursday", "hours": "11am - 9pm" },
        { "day": "friday", "hours": "11am - 9pm" },
        { "day": "saturday", "hours": "11am - 9pm" },
        { "day": "sunday", "hours": "11am - 9pm" }
      ]
    },
    {
      "id" : "40",
      "name": "Cassava Roots REFORMA",
      "placeId": "ChIJU8_KiUr_0YUR459bhjI1nvg",
      "address": "C. Río Tiber 64, Cuauhtémoc, 06500 Ciudad de México, CDMX, México",
      "img": "https://m.media-amazon.com/images/I/61ICkCk85gL._CR0,27,1387,1387_UX256.jpg",
      "coordinates": {
        "lat": 19.430814, "lng": -99.169484
      },
      "schedule": [
        { "day": "monday", "hours": "10am - 9pm" },
        { "day": "tuesday", "hours": "10am - 9pm" },
        { "day": "wednesday", "hours": "10am - 9pm" },
        { "day": "thursday", "hours": "10am - 9pm" },
        { "day": "friday", "hours": "10am - 9pm" },
        { "day": "saturday", "hours": "10am - 9pm" },
        { "day": "sunday", "hours": "10am - 9pm" }
      ]
    },
    {
      "id" : "41",
      "name": "Cassava Roots PASEO INTERLOMAS",
      "placeId": "ChIJSzGyk8EH0oURzXHQRxqn5gI",
      "address": "Vialidad de la Barranca. 6, Ex Hacienda Jesús del Monte. Ampliación, Col. Ex Hacienda Jesús del Monte, Bosque de las Palmas, 52787 Naucalpan de Juárez, Méx., México",
      "img": "https://m.media-amazon.com/images/I/61ICkCk85gL._CR0,27,1387,1387_UX256.jpg",
      "coordinates": {
        "lat": 19.399098, "lng": -99.283236
      },
      "schedule": [
        { "day": "monday", "hours": "11am - 9pm" },
        { "day": "tuesday", "hours": "11am - 9pm" },
        { "day": "wednesday", "hours": "11am - 9pm" },
        { "day": "thursday", "hours": "11am - 9pm" },
        { "day": "friday", "hours": "11am - 9:30pm" },
        { "day": "saturday", "hours": "11am - 9:30pm" },
        { "day": "sunday", "hours": "11am - 9pm" }
      ]
    },
    {
      "id" : "42",
      "name": "Cassava Roots COSMOPOL",
      "placeId": "ChIJYWWsab_10YURFDGP9KFA7iM",
      "address": "Av. José López Portillo 1, Nivel 2 Local, No. B-203, Bosques del Valle, 55712 San Francisco Coacalco, Méx., México",
      "img": "https://m.media-amazon.com/images/I/61ICkCk85gL._CR0,27,1387,1387_UX256.jpg",
      "coordinates": {
        "lat": 19.632256, "lng": -99.124914
      },
      "schedule": [
        { "day": "monday", "hours": "11am - 9pm" },
        { "day": "tuesday", "hours": "11am - 9pm" },
        { "day": "wednesday", "hours": "11am - 9pm" },
        { "day": "thursday", "hours": "11am - 9pm" },
        { "day": "friday", "hours": "11am - 9pm" },
        { "day": "saturday", "hours": "11am - 9pm" },
        { "day": "sunday", "hours": "11am - 9pm" }
      ]
    },
    {
      "id" : "43",
      "name": "Cassava Roots LUNA PARC",
      "placeId": "ChIJWxo4OTYe0oURVQ5Gk891lXc",
      "address": "Av. Primero de Mayo S/N-Local 302, Cumbria, 54740 Cuautitlán Izcalli, Méx., México",
      "img": "https://m.media-amazon.com/images/I/61ICkCk85gL._CR0,27,1387,1387_UX256.jpg",
      "coordinates": {
        "lat": 19.657441, "lng": -99.210931
      },
      "schedule": [
        { "day": "monday", "hours": "11:30am - 9pm" },
        { "day": "tuesday", "hours": "11:30am - 9pm" },
        { "day": "wednesday", "hours": "11:30am - 9pm" },
        { "day": "thursday", "hours": "11:30am - 9pm" },
        { "day": "friday", "hours": "11:30am - 9pm" },
        { "day": "saturday", "hours": "11:30am - 9pm" },
        { "day": "sunday", "hours": "11:30am - 9pm" }
      ]
    },
    {
      "id" : "44",
      "name": "Cassava Roots GRAN TERRAZA",
      "placeId": "ChIJbxH5oxcD0oUR-w-qHWbqERg",
      "address": "Gran Terraza Lomas Verdes Colina de La Paz 25 Local FC-01, Boulevares, 53140 Naucalpan de Juárez, Méx., México",
      "img": "https://m.media-amazon.com/images/I/61ICkCk85gL._CR0,27,1387,1387_UX256.jpg",
      "coordinates": {
        "lat": 19.495803, "lng": -99.247019
      },
      "schedule": [
        { "day": "monday", "hours": "10am - 8:30pm" },
        { "day": "tuesday", "hours": "10am - 8:30pm" },
        { "day": "wednesday", "hours": "10am - 8:30pm" },
        { "day": "thursday", "hours": "10am - 8:30pm" },
        { "day": "friday", "hours": "10am - 9pm" },
        { "day": "saturday", "hours": "10am - 9pm" },
        { "day": "sunday", "hours": "10am - 9pm" }
      ]
    },
    {
      "id" : "45",
      "name": "Cassava Roots TOWN CENTER ROSARIO",
      "placeId": "ChIJgZS4H70C0oURop4yggUmg3Y",
      "address": "Av El Rosario 1025, El Rosario, Azcapotzalco, 02100 Ciudad de México, CDMX, México",
      "img": "https://m.media-amazon.com/images/I/61ICkCk85gL._CR0,27,1387,1387_UX256.jpg",
      "coordinates": {
        "lat": 19.503198, "lng": -99.203118
      },
      "schedule": [
        { "day": "monday", "hours": "10am - 8:30pm" },
        { "day": "tuesday", "hours": "10am - 8:30pm" },
        { "day": "wednesday", "hours": "10am - 8:30pm" },
        { "day": "thursday", "hours": "10am - 8:30pm" },
        { "day": "friday", "hours": "10am - 9pm" },
        { "day": "saturday", "hours": "10am - 9pm" },
        { "day": "sunday", "hours": "10am - 9pm" }
      ]
    },
    {
      "id" : "46",
      "name": "Cassava Roots ATIZAPÁN",
      "placeId": "ChIJGbZQvZsc0oUREohU1yCyogE",
      "address": " Av. Adolfo Ruiz Cortines 255, Mexico Nuevo, 52977 Cd López Mateos, Méx., México",
      "img": "https://m.media-amazon.com/images/I/61ICkCk85gL._CR0,27,1387,1387_UX256.jpg",
      "coordinates": {
        "lat": 19.548672, "lng": -99.273948
      },
      "schedule": [
        { "day": "monday", "hours": "11am - 9pm" },
        { "day": "tuesday", "hours": "11am - 9pm" },
        { "day": "wednesday", "hours": "11am - 9pm" },
        { "day": "thursday", "hours": "11am - 9pm" },
        { "day": "friday", "hours": "11am - 9pm" },
        { "day": "saturday", "hours": "11am - 9pm" },
        { "day": "sunday", "hours": "11am - 9pm" }
      ]
    },
    {
      "id" : "47",
      "name": "Cassava Roots TLALNEPANTLA",
      "placeId": "ChIJzRXBLUQd0oURvpv1UzM04r4",
      "address": "Av Sor Juana Inés de La Cruz 280, San Lorenzo, 54033 Tlalnepantla de Baz, Méx., México",
      "img": "https://m.media-amazon.com/images/I/61ICkCk85gL._CR0,27,1387,1387_UX256.jpg",
      "coordinates": {
        "lat": 19.538317, "lng": -99.206105
      },
      "schedule": [
        { "day": "monday", "hours": "11am - 8:30pm" },
        { "day": "tuesday", "hours": "11am - 8:30pm" },
        { "day": "wednesday", "hours": "11am - 8:30pm" },
        { "day": "thursday", "hours": "11am - 8:30pm" },
        { "day": "friday", "hours": "11am - 9pm" },
        { "day": "saturday", "hours": "11am - 9pm" },
        { "day": "sunday", "hours": "11am - 8:30pm" }
      ]
    },
    {
      "id" : "48",
      "name": "Cassava Roots VIA VALLEJO",
      "placeId": "ChIJDZmUaFH40YUR94Y-wleVHEk",
      "address": "02340, Calz. Vallejo 1090, Sta Cruz de las Salinas, Azcapotzalco, 02340 Ciudad de México, CDMX, México",
      "img": "https://m.media-amazon.com/images/I/61ICkCk85gL._CR0,27,1387,1387_UX256.jpg",
      "coordinates": {
        "lat": 19.487244, "lng": -99.151922
      },
      "schedule": [
        { "day": "monday", "hours": "11am - 8pm" },
        { "day": "tuesday", "hours": "11am - 8pm" },
        { "day": "wednesday", "hours": "11am - 8pm" },
        { "day": "thursday", "hours": "11am - 9:30pm" },
        { "day": "friday", "hours": "11am - 9:30pm" },
        { "day": "saturday", "hours": "11am - 9:30pm" },
        { "day": "sunday", "hours": "11am - 9:30pm" }
      ]
    },
    {
      "id" : "49",
      "name": "Cassava Roots FORUM BUENAVISTA",
      "placeId": "ChIJj0KlSNr40YURPPI0yw48vzY",
      "address": "Eje 1 Norte, Mosqueta 259, Buenavista, Cuauhtémoc, 06350 Ciudad de México, CDMX, México",
      "img": "https://m.media-amazon.com/images/I/61ICkCk85gL._CR0,27,1387,1387_UX256.jpg",
      "coordinates": {
        "lat": 19.448668, "lng": -99.152497
      },
      "schedule": [
        { "day": "monday", "hours": "11am - 9pm" },
        { "day": "tuesday", "hours": "11am - 9pm" },
        { "day": "wednesday", "hours": "11am - 9pm" },
        { "day": "thursday", "hours": "11am - 9pm" },
        { "day": "friday", "hours": "11am - 10pm" },
        { "day": "saturday", "hours": "11am - 10pm" },
        { "day": "sunday", "hours": "11am - 9pm" }
      ]
    },
    {
      "id" : "50",
      "name": "Cassava Roots METROPOLI PATRIOTISMO",
      "placeId": "ChIJA01SSdn_0YURvi511rDVjAk",
      "address": "Av. Patriotismo 229, San Pedro de los Pinos, Benito Juárez, 03800 Ciudad de México, CDMX, México",
      "img": "https://m.media-amazon.com/images/I/61ICkCk85gL._CR0,27,1387,1387_UX256.jpg",
      "coordinates": {
        "lat": 19.39556, "lng": -99.181039
      },
      "schedule": [
        { "day": "monday", "hours": "11am - 8:30pm" },
        { "day": "tuesday", "hours": "11am - 8:30pm" },
        { "day": "wednesday", "hours": "11am - 8:30pm" },
        { "day": "thursday", "hours": "11am - 8:30pm" },
        { "day": "friday", "hours": "11am - 9:30pm" },
        { "day": "saturday", "hours": "11am - 9:30pm" },
        { "day": "sunday", "hours": "11am - 8:30pm" }
      ]
    },
    {
      "id" : "51",
      "name": "Cassava Roots PLAZA CIUDAD JARDÍN",
      "placeId": "ChIJK_QO7ov90YUROroFY8zGiXw",
      "address": "Jardin Bicentenario, Av. Bordo de Xochiaca 3, Col. Raul Romero Ampliación, 57300 Nezahualcóyotl, Méx., México",
      "img": "https://m.media-amazon.com/images/I/61ICkCk85gL._CR0,27,1387,1387_UX256.jpg",
      "coordinates": {
        "lat": 19.425234, "lng": -99.02358
      },
      "schedule": [
        { "day": "monday", "hours": "11am - 9pm" },
        { "day": "tuesday", "hours": "11am - 9pm" },
        { "day": "wednesday", "hours": "11am - 9pm" },
        { "day": "thursday", "hours": "11am - 9pm" },
        { "day": "friday", "hours": "11am - 9pm" },
        { "day": "saturday", "hours": "11am - 9pm" },
        { "day": "sunday", "hours": "11am - 9pm" }
      ]
    },
    {
      "id" : "52",
      "name": "Cassava Roots HERMOSILLO",
      "placeId": "ChIJSRf51ICFzoYRW2Zgrighldo",
      "address": "Av Cultura 55, Proyecto Rio Sonora Hermosillo XXI, 83270 Hermosillo, Son., México",
      "img": "https://m.media-amazon.com/images/I/61ICkCk85gL._CR0,27,1387,1387_UX256.jpg",
      "coordinates": {
        "lat": 29.064375, "lng": -110.951509
      },
      "schedule": [
        { "day": "monday", "hours": "10am - 8:30pm" },
        { "day": "tuesday", "hours": "10am - 8:30pm" },
        { "day": "wednesday", "hours": "10am - 8:30pm" },
        { "day": "thursday", "hours": "10am - 8:30pm" },
        { "day": "friday", "hours": "10am - 8:30pm" },
        { "day": "saturday", "hours": "10am - 9pm" },
        { "day": "sunday", "hours": "10am - 9pm" }
      ]
    },
    {
      "id" : "53",
      "name": "Cassava Roots ANTEA QUERÉTARO",
      "placeId": "ChIJPWLHmftb04URU7pt-XO-zNA",
      "address": "San Luis Potosí - Santiago de Querétaro, Av. Antea 12401, 76100 Santiago de Querétaro, Qro., México",
      "img": "https://m.media-amazon.com/images/I/61ICkCk85gL._CR0,27,1387,1387_UX256.jpg",
      "coordinates": {
        "lat": 20.674258, "lng": -100.436094
      },
      "schedule": [
        { "day": "monday", "hours": "11am - 9pm" },
        { "day": "tuesday", "hours": "11am - 9pm" },
        { "day": "wednesday", "hours": "11am - 9pm" },
        { "day": "thursday", "hours": "11am - 9pm" },
        { "day": "friday", "hours": "11am - 9pm" },
        { "day": "saturday", "hours": "11am - 9pm" },
        { "day": "sunday", "hours": "11am - 6pm" }
      ]
    },
    {
      "id" : "54",
      "name": "Cassava Roots GALERÍAS PACHUCA",
      "placeId": "ChIJF0mN0pag0YURr5JA3lcxYFQ",
      "address": "Camino Real de La Plata 100, Zona Plateada, 42083 Pachuca de Soto, Hgo., México",
      "img": "https://m.media-amazon.com/images/I/61ICkCk85gL._CR0,27,1387,1387_UX256.jpg",
      "coordinates": {
        "lat": 20.098199, "lng": -98.767565
      },
      "schedule": [
        { "day": "monday", "hours": "11am - 9pm" },
        { "day": "tuesday", "hours": "11am - 9pm" },
        { "day": "wednesday", "hours": "11am - 9pm" },
        { "day": "thursday", "hours": "11am - 9pm" },
        { "day": "friday", "hours": "11am - 9pm" },
        { "day": "saturday", "hours": "11am - 9pm" },
        { "day": "sunday", "hours": "11am - 6pm" }
      ]
    },
    {
      "id" : "55",
      "name": "Cassava Roots TOWN METEPEC",
      "placeId": "ChIJSetfQVeLzYURV0GluUrdQBc",
      "address": "Av. Ignacio Comonfort 1100 Lote 1 Manzana 7, La Providencia, 52177 Metepec, Méx., México",
      "img": "https://m.media-amazon.com/images/I/61ICkCk85gL._CR0,27,1387,1387_UX256.jpg",
      "coordinates": {
        "lat": 19.267154, "lng": -99.605833
      },
      "schedule": [
        { "day": "monday", "hours": "12pm - 8pm" },
        { "day": "tuesday", "hours": "12pm - 8pm" },
        { "day": "wednesday", "hours": "12pm - 8pm" },
        { "day": "thursday", "hours": "12pm - 8pm" },
        { "day": "friday", "hours": "12pm - 8pm" },
        { "day": "saturday", "hours": "12pm - 8pm" },
        { "day": "sunday", "hours": "12pm - 8pm" }
      ]
    },
    {
      "id" : "56",
      "name": "Cassava Roots WALMART TEPEYAC",
      "placeId": "ChIJLRG0Oif50YURKc_YBf31eS4",
      "address": "Calz de Guadalupe 431, Guadalupe Tepeyac, Gustavo A. Madero, 07840 Ciudad de México, CDMX, México",
      "img": "https://m.media-amazon.com/images/I/61ICkCk85gL._CR0,27,1387,1387_UX256.jpg",
      "coordinates": {
        "lat": 19.472008, "lng": -99.120367
      },
      "schedule": [
        { "day": "monday", "hours": "10am - 9pm" },
        { "day": "tuesday", "hours": "10am - 9pm" },
        { "day": "wednesday", "hours": "10am - 9pm" },
        { "day": "thursday", "hours": "10am - 9pm" },
        { "day": "friday", "hours": "10am - 9pm" },
        { "day": "saturday", "hours": "10am - 9pm" },
        { "day": "sunday", "hours": "10am - 9pm" }
      ]
    },
    {
      "id" : "57",
      "name": "Cassava Roots PABELLON CUEMANCO",
      "placeId": "ChIJTa0nxREBzoURfOfvtr-_N9k",
      "address": "Cañaverales 222-Isla 8, Coapa, Granjas Coapa, Tlalpan, 14330 Ciudad de México, CDMX, México",
      "img": "https://m.media-amazon.com/images/I/61ICkCk85gL._CR0,27,1387,1387_UX256.jpg",
      "coordinates": {
        "lat": 19.295239, "lng": -99.10845
      },
      "schedule": [
        { "day": "monday", "hours": "10am - 9pm" },
        { "day": "tuesday", "hours": "10am - 9pm" },
        { "day": "wednesday", "hours": "10am - 9pm" },
        { "day": "thursday", "hours": "10am - 9pm" },
        { "day": "friday", "hours": "10am - 9pm" },
        { "day": "saturday", "hours": "10am - 9pm" },
        { "day": "sunday", "hours": "10am - 9pm" }
      ]
    },
    {
      "id" : "58",
      "name": "Cassava Roots NUEVA SANTA MARIA",
      "placeId": "ChIJiSu1VKr50YUREZpZlRGvCZo",
      "address": "Calle Clavelinas 159, Nueva Santa María, Azcapotzalco, 02800 Ciudad de México, CDMX, México",
      "img": "https://m.media-amazon.com/images/I/61ICkCk85gL._CR0,27,1387,1387_UX256.jpg",
      "coordinates": {
        "lat": 19.465612, "lng": -99.167173
      },
      "schedule": [
        { "day": "monday", "hours": "10am - 8pm" },
        { "day": "tuesday", "hours": "10am - 8pm" },
        { "day": "wednesday", "hours": "10am - 8pm" },
        { "day": "thursday", "hours": "10am - 8pm" },
        { "day": "friday", "hours": "10am - 8pm" },
        { "day": "saturday", "hours": "10am - 8pm" },
        { "day": "sunday", "hours": "10am - 8pm" }
      ]
    },
    {
      "id" : "59",
      "name": "Cassava Roots GALERIAS METEPEC",
      "placeId": "ChIJqZp9XOeLzYURBLro_dE3uWs",
      "address": "Blvrd Toluca Metepec 400-Local 350 Piso 1 - Galerías, Zona Sin Asignación de Nombre de Col 1, 52140 Metepec, Méx., México",
      "img": "https://m.media-amazon.com/images/I/61ICkCk85gL._CR0,27,1387,1387_UX256.jpg",
      "coordinates": {
        "lat": 19.259139, "lng": -99.620803
      },
      "schedule": [
        { "day": "monday", "hours": "11am - 9pm" },
        { "day": "tuesday", "hours": "11am - 9pm" },
        { "day": "wednesday", "hours": "11am - 9pm" },
        { "day": "thursday", "hours": "11am - 9pm" },
        { "day": "friday", "hours": "11am - 9pm" },
        { "day": "saturday", "hours": "11am - 9pm" },
        { "day": "sunday", "hours": "11am - 9pm" }
      ]
    },
    {
      "id" : "60",
      "name": "Cassava Roots ZONA ROSA",
      "placeId": "ChIJd4XxFJv_0YUR5Pnyp0Cg8lw",
      "address": "Calle Liverpool, Esq. Genova Zona Rosa, Juárez, Cuauhtémoc, 06600 Ciudad de México, CDMX, México",
      "img": "https://m.media-amazon.com/images/I/61ICkCk85gL._CR0,27,1387,1387_UX256.jpg",
      "coordinates": {
        "lat": 19.424786, "lng": -99.163409
      },
      "schedule": [
        { "day": "monday", "hours": "9am - 11pm" },
        { "day": "tuesday", "hours": "9am - 11pm" },
        { "day": "wednesday", "hours": "9am - 11pm" },
        { "day": "thursday", "hours": "9am - 11pm" },
        { "day": "friday", "hours": "9am - 11pm" },
        { "day": "saturday", "hours": "9am - 11pm" },
        { "day": "sunday", "hours": "10am - 10pm" }
      ]
    },
    {
      "id" : "61",
      "name": "Cassava Roots PUNTO MAQ",
      "placeId": "ChIJj6Pvt_H_0YUR_SwvWrXZdvQ",
      "address": "Plaza Punto MAQ, Av. Miguel Ángel de Quevedo 1144, Parque San Andrés, Coyoacán, 04040 Ciudad de México, CDMX, México",
      "img": "https://m.media-amazon.com/images/I/61ICkCk85gL._CR0,27,1387,1387_UX256.jpg",
      "coordinates": {
        "lat": 19.34299, "lng": -99.14658
      },
      "schedule": [
        { "day": "monday", "hours": "8am - 10pm" },
        { "day": "tuesday", "hours": "8am - 10pm" },
        { "day": "wednesday", "hours": "8am - 10pm" },
        { "day": "thursday", "hours": "8am - 10pm" },
        { "day": "friday", "hours": "8am - 10pm" },
        { "day": "saturday", "hours": "8am - 10pm" },
        { "day": "sunday", "hours": "8am - 10pm" }
      ]
    },
    {
      "id" : "62",
      "name": "Cassava Roots PARQUE TEPEYAC",
      "placeId": "ChIJW7I5t8T70YURPjFAedMIfVs",
      "address": "Av. Ing. Eduardo Molina 6730-Local L-66, Demarcación Territorial, Granjas Modernas, Gustavo A. Madero, 07460 Ciudad de México, CDMX, México",
      "img": "https://m.media-amazon.com/images/I/61ICkCk85gL._CR0,27,1387,1387_UX256.jpg",
      "coordinates": {
        "lat": 19.477908, "lng": -99.099081
      },
      "schedule": [
        { "day": "monday", "hours": "10am - 9:30pm" },
        { "day": "tuesday", "hours": "10am - 9:30pm" },
        { "day": "wednesday", "hours": "10am - 9:30pm" },
        { "day": "thursday", "hours": "10am - 9:30pm" },
        { "day": "friday", "hours": "10am - 9:30pm" },
        { "day": "saturday", "hours": "10am - 9:30pm" },
        { "day": "sunday", "hours": "10am - 9:30pm" }
      ]
    }
  ]
}